{"type":"FeatureCollection","features":[{"type":"Feature","id":"1","geometry":{"type":"Point","coordinates":[121.5679100000001,39.760999000000027]},"properties":{"名称":"红沿河一期#1、#2、#3、#4","建设状态":"已建","省":"辽宁","已建装机容量_万千瓦":447.2,"预投产时序":null,"投产时序":2013,"地址":"辽宁省大连市瓦房店市红沿河镇","电源类型":"核电"}},{"type":"Feature","id":"3","geometry":{"type":"Point","coordinates":[121.37889900000005,36.71631700000006]},"properties":{"名称":"海阳一期#1、#2","建设状态":"已建","省":"山东","已建装机容量_万千瓦":250,"预投产时序":null,"投产时序":2014,"地址":"山东省烟台市海阳市留格庄镇","电源类型":"核电"}},{"type":"Feature","id":"5","geometry":{"type":"Point","coordinates":[119.46363500000007,34.690689000000077]},"properties":{"名称":"国核示范","建设状态":"已建","省":"江苏","已建装机容量_万千瓦":212,"预投产时序":null,"投产时序":2007,"地址":"江苏省连云港市连云区宿城街道","电源类型":"核电"}},{"type":"Feature","id":"6","geometry":{"type":"Point","coordinates":[119.46363500000007,34.690689000000077]},"properties":{"名称":"海阳二期","建设状态":"已建","省":"江苏","已建装机容量_万千瓦":225.2,"预投产时序":null,"投产时序":2018,"地址":"江苏省连云港市连云区宿城街道","电源类型":"核电"}},{"type":"Feature","id":"8","geometry":{"type":"Point","coordinates":[120.94626300000004,30.526436000000047]},"properties":{"名称":"秦山一期#1","建设状态":"已建","省":"浙江","已建装机容量_万千瓦":32,"预投产时序":null,"投产时序":1994,"地址":"浙江省嘉兴市海盐县武原街道","电源类型":"核电"}},{"type":"Feature","id":"9","geometry":{"type":"Point","coordinates":[120.94626300000004,30.526436000000047]},"properties":{"名称":"秦山二期#1、#2、#3、#4","建设状态":"已建","省":"浙江","已建装机容量_万千瓦":262,"预投产时序":null,"投产时序":2002,"地址":"浙江省嘉兴市海盐县武原街道","电源类型":"核电"}},{"type":"Feature","id":"10","geometry":{"type":"Point","coordinates":[120.94626300000004,30.526436000000047]},"properties":{"名称":"秦山三期#1、#2","建设状态":"已建","省":"浙江","已建装机容量_万千瓦":145.6,"预投产时序":null,"投产时序":2002,"地址":"浙江省嘉兴市海盐县武原街道","电源类型":"核电"}},{"type":"Feature","id":"11","geometry":{"type":"Point","coordinates":[120.94626300000004,30.526436000000047]},"properties":{"名称":"方家山#1、#2","建设状态":"已建","省":"浙江","已建装机容量_万千瓦":217.8,"预投产时序":null,"投产时序":2014,"地址":"浙江省嘉兴市海盐县武原街道","电源类型":"核电"}},{"type":"Feature","id":"12","geometry":{"type":"Point","coordinates":[121.39577700000007,29.104873000000055]},"properties":{"名称":"三门一期#1、#2","建设状态":"已建","省":"浙江","已建装机容量_万千瓦":250,"预投产时序":null,"投产时序":2013,"地址":"浙江省台州市三门县海游镇","电源类型":"核电"}},{"type":"Feature","id":"15","geometry":{"type":"Point","coordinates":[120.25157000000002,27.099617000000023]},"properties":{"名称":"宁德一期#1、#2、#3、#4","建设状态":"已建","省":"福建","已建装机容量_万千瓦":435.6,"预投产时序":null,"投产时序":2013,"地址":"福建省宁德市福鼎市太姥山镇","电源类型":"核电"}},{"type":"Feature","id":"16","geometry":{"type":"Point","coordinates":[119.45515400000011,25.45853500000004]},"properties":{"名称":"福清一期#1、#2","建设状态":"已建","省":"福建","已建装机容量_万千瓦":232,"预投产时序":null,"投产时序":2013,"地址":"福建省福州市福清市三山镇","电源类型":"核电"}},{"type":"Feature","id":"17","geometry":{"type":"Point","coordinates":[119.45515400000011,25.45853500000004]},"properties":{"名称":"福清二期#3、#4","建设状态":"已建","省":"福建","已建装机容量_万千瓦":232,"预投产时序":null,"投产时序":2015,"地址":"福建省福州市福清市三山镇","电源类型":"核电"}},{"type":"Feature","id":"21","geometry":{"type":"Point","coordinates":[114.55644900000004,22.517870000000073]},"properties":{"名称":"大亚湾#1、#2","建设状态":"已建","省":"广东","已建装机容量_万千瓦":196.8,"预投产时序":null,"投产时序":1994,"地址":"广东省深圳市龙岗区南澳街道","电源类型":"核电"}},{"type":"Feature","id":"22","geometry":{"type":"Point","coordinates":[114.47462100000007,22.597612000000026]},"properties":{"名称":"岭澳一期#1、#2","建设状态":"已建","省":"广东","已建装机容量_万千瓦":198,"预投产时序":null,"投产时序":2002,"地址":"广东省深圳市龙岗区大鹏街道","电源类型":"核电"}},{"type":"Feature","id":"23","geometry":{"type":"Point","coordinates":[114.47462100000007,22.597612000000026]},"properties":{"名称":"岭澳二期#1、#2","建设状态":"已建","省":"广东","已建装机容量_万千瓦":217.2,"预投产时序":null,"投产时序":2010,"地址":"广东省深圳市龙岗区大鹏街道","电源类型":"核电"}},{"type":"Feature","id":"24","geometry":{"type":"Point","coordinates":[111.98223200000007,21.857958000000053]},"properties":{"名称":"阳江一期#1、#2、#3、#4","建设状态":"已建","省":"广东","已建装机容量_万千瓦":434.4,"预投产时序":null,"投产时序":2013,"地址":"广东省阳江市 城东街道","电源类型":"核电"}},{"type":"Feature","id":"25","geometry":{"type":"Point","coordinates":[111.98223200000007,21.857958000000053]},"properties":{"名称":"阳江二期#5、#6","建设状态":"已建","省":"广东","已建装机容量_万千瓦":217.4,"预投产时序":null,"投产时序":2018,"地址":"广东省阳江市 城东街道","电源类型":"核电"}},{"type":"Feature","id":"26","geometry":{"type":"Point","coordinates":[112.89987000000008,21.975390000000061]},"properties":{"名称":"台山一期#1、#2","建设状态":"已建","省":"广东","已建装机容量_万千瓦":350,"预投产时序":null,"投产时序":2014,"地址":"广东省江门市台山市赤溪镇","电源类型":"核电"}},{"type":"Feature","id":"27","geometry":{"type":"Point","coordinates":[108.55762900000008,21.676338000000044]},"properties":{"名称":"防城港一期#1、#2","建设状态":"已建","省":"广西","已建装机容量_万千瓦":217.2,"预投产时序":null,"投产时序":2015,"地址":"广西壮族自治区防城港市港口区光坡镇","电源类型":"核电"}},{"type":"Feature","id":"29","geometry":{"type":"Point","coordinates":[108.81830000000008,19.422000000000025]},"properties":{"名称":"昌江一期#1、#2","建设状态":"已建","省":"海南","已建装机容量_万千瓦":130,"预投产时序":null,"投产时序":2015,"地址":"海南省 昌江黎族自治县海尾镇","电源类型":"核电"}}],"crs":{"properties":{"name":"EPSG:4326"},"type":"name"}}
